station_id,latitude_x,longitude_x,slots,empty_slots,free_bikes,name,latitude_y,longitude_y,yelp_rating,yelp_review
b6903d788830595e054121e462598381,48.4280227,-71.0625061,7,4,2,Le Légendaire Restaurant Bar,48.41064295254581,-71.05336150243492,4.0,6
3aa299f4d3048ef94737bbf5fbc03825,48.4044567,-71.0582083,7,1,6,Boefish,48.4055757601996,-71.0570464618525,4.5,5
0b1c0c48e94fae24b1a38f4559a5985a,48.42048,-71.05338,7,5,2,Passion Café,48.4092903,-71.0549469,4.0,5
f450af93c8d0f5ae5de8ea7cb1aafe70,48.3372301,-70.8795642,7,5,2,Rôtisserie St-Hubert,48.41331781556463,-71.04919084110449,2.5,4
7ada5d893c40c9a46a54f771a392db6f,48.42511890000001,-71.0513359,7,5,2,Ben & Florentine,48.403481,-71.054605,2.5,6
989fc50e15bad6b1f40d26f986d50ccc,48.404255,-71.2163722,7,7,0,Le Légendaire Restaurant Bar,48.41064295254581,-71.05336150243492,4.0,6
e5b2a5bf7b36bcd5d52ca0d63a56ae06,48.4118069,-71.2548896,7,3,4,Boefish,48.4055757601996,-71.0570464618525,4.5,5
